학교급,설립,구,학교명,주소,구분,학생수합계,lon,lat,동,slope_point,slope_300m_mean,slope_300m_max
초,공립,대덕구,대전대화초등학교,대전광역시 대덕구 대화로 242-36. 대전대화초등학교 (대화동),본교,109,127.4112898,36.3625262,대화동,0.3254414498806,9.05150032043457,38.15839385986328
초,공립,대덕구,대전동도초등학교,대전광역시 대덕구 한남로150번길 27(오정동. 동도초등학교),본교,73,127.4124032,36.3478144,오정동,0.05495592951774597,2.2289366722106934,19.471620559692383
초,공립,대덕구,대전동산초등학교,대전광역시 대덕구 동산초교로63번길 50. 대전동산초등학교 (오정동),본교,226,127.4214961,36.3505625,오정동,0.5624848008155823,4.339044094085693,30.82232093811035
초,공립,대덕구,대전매봉초등학교,대전광역시 대덕구 선비마을로 155(송촌동. 대전매봉초등학교),본교,465,127.4372248,36.3695187,송촌동,2.564744472503662,8.545154571533203,44.10379409790039
초,공립,대덕구,대전목상초등학교,대전광역시 대덕구 대덕대로1486번길 117(목상동. 대전목상초등학교),본교,161,127.4126245,36.4457981,목상동,7.779783248901367,3.3344955444335938,30.8430233001709
초,공립,대덕구,대전법동초등학교,대전광역시 대덕구 계족로664번길 74(법동.대전법동초등학교),본교,289,127.4325902,36.3693345,법2동,2.56742000579834,3.653498649597168,28.00218391418457
초,공립,대덕구,대전비래초등학교,대전광역시 대덕구 우암로492번길 65(비래동. 대전비래초등학교),본교,217,127.4512659,36.361626,비래동,1.7029379606246948,6.901233673095703,30.345096588134766
초,공립,대덕구,대전새여울초등학교,대전광역시 대덕구 대덕대로 1585. 대전새여울초등학교,본교,881,127.4224192,36.4517219,석봉동,0.31431466341018677,1.6919817924499512,16.4032039642334
초,공립,대덕구,대전석봉초등학교,대전광역시 대덕구 신탄진남로 20. 대전석봉초등학교 (신탄진동. 대전석봉초등학교),본교,84,127.4347803,36.4470316,신탄진동,1.0606247186660767,6.676281929016113,35.19583511352539
초,공립,대덕구,대전송촌초등학교,대전광역시 대덕구 동춘당로54번길 35(송촌동. 대전송촌초등학교),본교,531,127.4440778,36.3648913,송촌동,2.742699384689331,4.523516654968262,31.147436141967773
초,공립,대덕구,대전양지초등학교,대전광역시 대덕구 쌍청당로 45(법동),본교,178,127.4334862,36.3656527,법2동,1.4573167562484741,3.349184036254883,14.60917854309082
초,공립,대덕구,대전중리초등학교,대전광역시 대덕구 중리북로 20(법동),본교,360,127.4272541,36.3675607,법1동,0.3454824388027191,3.4179880619049072,32.50436019897461
초,공립,대덕구,대전중원초등학교,대전광역시 대덕구 중리로64번길 45(중리동),본교,228,127.4275356,36.3656424,중리동,0.9672936201095581,3.2381393909454346,25.177608489990234
초,공립,대덕구,대전화정초등학교,대전광역시 대덕구 한밭대로1024번길 20(오정동. 화정초등학교),본교,152,127.4118971,36.3573291,오정동,0.961167573928833,2.0633904933929443,33.16039276123047
초,공립,대덕구,새일초등학교,대전광역시 대덕구 덕암로125번길 15(덕암동.새일초등학교),본교,149,127.4195224,36.4317546,덕암동,3.1160740852355957,4.806055068969727,30.697879791259766
초,공립,대덕구,신탄진용정초등학교,대전광역시 대덕구 대청로 65. 신탄진용정초등학교 (신탄진동),본교,384,127.4358676,36.4540033,신탄진동,2.695305109024048,3.877012252807617,29.737455368041992
초,공립,대덕구,신탄진초등학교,대전광역시 대덕구 석봉로3번길 50(석봉동. 신탄진초등학교),본교,263,127.4223133,36.4494593,석봉동,0.2925621271133423,2.1846024990081787,25.090957641601562
초,공립,대덕구,와동초등학교,대전광역시 대덕구 신탄진로 189(신대동. 와동초등학교),본교,170,127.4222878,36.3971876,회덕동,0.6883325576782227,4.895845413208008,31.846521377563477
초,공립,대덕구,장동초등학교,대전광역시 대덕구 장동로 223-37(장동. 대전장동초등학교),본교,38,127.4358274,36.4148625,회덕동,3.5235767364501953,14.288289070129395,30.325288772583008
초,공립,대덕구,회덕초등학교,대전광역시 대덕구 대전로 1350(읍내동),본교,112,127.4214085,36.374445,회덕동,0.10138563066720963,3.9834043979644775,45.497318267822266
초,공립,동구,대전가양초등학교,대전광역시 동구 가양로 61(가양동. 대전가양초등학교),본교,386,127.4405406,36.3421995,가양1동,0.9788085222244263,1.7006466388702393,18.743396759033203
초,공립,동구,대전가오초등학교,대전광역시 동구 신기로 112. 가오초등학교 (가오동),본교,456,127.4584142,36.3109093,효동,0.4327628016471863,3.766094446182251,28.996416091918945
초,공립,동구,대전대동초등학교,대전광역시 동구 대동초등3길 21(대동. 대전대동초등학교),본교,232,127.4468997,36.3251324,대동,0.8252886533737183,5.1124396324157715,43.83149719238281
초,공립,동구,대전대룡초등학교,대전광역시 동구 백룡로 123(용운동. 대전대룡초등학교),본교,267,127.4558657,36.3299141,용운동,8.188511848449707,11.337090492248535,35.17217254638672
초,공립,동구,대전대암초등학교,대전광역시 동구 동부로 55-61(판암동. 대전대암초등학교),본교,91,127.4571693,36.323431,판암2동,2.7959492206573486,10.106037139892578,34.1556510925293
초,공립,동구,대전동광초등학교,대전광역시 동구 백룡로11번길 20. 대전동광초등학교 (자양동.대전동광초등학교),본교,112,127.4499,36.3372049,자양동,4.2888875007629395,4.396733283996582,28.518226623535156
초,공립,동구,대전동서초등학교,대전광역시 동구 동서대로 1522(삼성동. 대전동서초등학교),본교,152,127.4225243,36.3410683,삼성동,0.42977938055992126,0.9927321076393127,7.475639820098877
초,공립,동구,대전삼성초등학교,대전광역시 동구 대전로867번길 12(삼성동),본교,126,127.4289027,36.3371425,삼성동,0.6968416571617126,1.7872291803359985,19.97420883178711
초,공립,동구,대전성남초등학교,대전광역시 동구 성남로32번길 5(성남동. 대전성남초등학교),본교,309,127.4295994,36.3439503,성남동,1.3717830181121826,3.292536973953247,23.62359046936035
초,공립,동구,대전신흥초등학교,대전광역시 동구 동대전로46번길 76. 대전신흥초등학교 (신흥동. 대전신흥초등학교),본교,1026,127.4399239,36.3256406,신인동,0.9372647404670715,2.706590414047241,30.38604164123535
초,공립,동구,대전용운초등학교,대전광역시 동구 용운로 204(용운동. 대전용운초등학교),본교,442,127.4637546,36.3262366,용운동,9.5039701461792,7.224184989929199,42.849388122558594
초,공립,동구,대전용전초등학교,대전광역시 동구 계족로505번길 49(용전동.대전용전초등학교),본교,534,127.4303126,36.3561565,용전동,0.5493020415306091,3.1243715286254883,15.765957832336426
초,공립,동구,대전은어송초등학교,대전광역시 동구 대전로 396. 대전은어송초등학교 (대성동),본교,836,127.4568136,36.3024663,산내동,0.7068012952804565,2.1434543132781982,23.92742347717285
초,공립,동구,대전자양초등학교,대전광역시 동구 계족로 184-55.(대전자양초등학교.자양동),본교,81,127.4428747,36.3335584,자양동,1.533167839050293,4.88891077041626,35.65131378173828
초,공립,동구,대전천동초등학교,대전광역시 동구 안샘로 8(천동) 대전천동초등학교,본교,951,127.4451593,36.3161208,효동,2.886425018310547,5.7232842445373535,32.74738693237305
초,공립,동구,대전판암초등학교,대전광역시 동구 옥천로180번길 32(판암동),본교,285,127.4605179,36.3159027,판암1동,0.14520609378814697,4.198124885559082,31.337289810180664
초,공립,동구,대전현암초등학교,대전광역시 동구 현암로 19. 대전현암초등학교 (삼성동),본교,113,127.4203907,36.3418691,삼성동,3.487145185470581,1.0201623439788818,7.475639820098877
초,공립,동구,대전흥룡초등학교,대전광역시 동구 동대전로256번길 21(가양동. 대전흥룡초등학교),본교,288,127.4480505,36.3451544,가양2동,2.116255283355713,2.8873703479766846,13.881114959716797
초,공립,동구,동대전초등학교,대전광역시 동구 비래서로62번길 60(가양동. 동대전초등학교),본교,401,127.4492505,36.3519283,가양2동,3.607135772705078,3.7912585735321045,18.558378219604492
초,공립,동구,동명초등학교,대전광역시 동구 천개동로 16(추동),본교,46,127.4742921,36.3741217,대청동,2.2774977684020996,8.243550300598145,36.501991271972656
초,공립,동구,산내초등학교,대전광역시 동구 산내로 1292(낭월동. 산내초등학교),본교,395,127.4700311,36.2792732,산내동,0.7730563282966614,7.669312000274658,45.03050231933594
초,공립,동구,산흥초등학교,대전광역시 동구 산내로 509(상소동. 산흥초등학교),본교,54,127.4483897,36.228975,산내동,5.497708797454834,14.364956855773926,43.89556121826172
초,공립,동구,세천초등학교,대전광역시 동구 옥천로 610-12(세천동.세천초등학교),본교,47,127.4937835,36.3415266,대청동,3.853111743927002,10.222576141357422,48.6875
초,공립,중구,대전글꽃초등학교,대전광역시 중구 계룡로918번길 97대전글꽃초등학교 (문화동),본교,770,127.4097377,36.3186639,문화1동,1.981459140777588,1.6043883562088013,8.554062843322754
초,공립,중구,대전대문초등학교,대전광역시 중구 송리로 11(문화동. 대전대문초등학교),본교,156,127.4004173,36.3068833,문화2동,1.8614225387573242,7.201216220855713,34.0651969909668
초,공립,중구,대전대신초등학교,대전광역시 중구 솔밭로16번길 17(대사동. 대전대신초등학교),본교,44,127.4208517,36.3156991,대사동,9.892141342163086,15.29282283782959,43.45695495605469
초,공립,중구,대전대흥초등학교,대전광역시 중구 수도산로 12(대흥동. 대흥초등학교),본교,388,127.4258441,36.3198058,대흥동,0.45068085193634033,3.1477038860321045,27.11832046508789
초,공립,중구,대전동문초등학교,대전광역시 중구 문화로 200(문화동. 대전동문초등학교),본교,186,127.4070326,36.3140992,문화1동,11.54810619354248,3.4382143020629883,22.633901596069336
초,공립,중구,대전목동초등학교,대전광역시 중구 목중로 19번길. 70 (목동),본교,640,127.4082366,36.3345455,목동,1.893186330795288,4.987293720245361,37.426944732666016
초,공립,중구,대전목양초등학교,대전광역시 중구 목동로 69(목동. 목양초등학교),본교,602,127.4048004,36.3367275,목동,0.35263025760650635,5.875020503997803,40.99125671386719
초,공립,중구,대전문성초등학교,대전광역시 중구 유등천동로292번길 89-14. 대전문성초등학교 (산성동),본교,108,127.3904473,36.3088516,산성동,0.1780604124069214,1.0171459913253784,5.80925989151001
초,공립,중구,대전문창초등학교,대전광역시 중구 문창로 55(부사동. 대전문창초등학교),본교,117,127.4338246,36.3173655,부사동,0.38179346919059753,0.6560110449790955,3.1661415100097656
초,공립,중구,대전문화초등학교,대전광역시 중구 문화로78번안길 70(문화동. 대전문화초등학교),본교,200,127.3969643,36.3113812,문화2동,0.7390038967132568,1.4933288097381592,12.815434455871582
초,공립,중구,대전버드내초등학교,대전광역시 중구 태평로 21. 대전버드내초등학교 (태평동),본교,630,127.3915009,36.3194287,태평2동,0.5065888166427612,0.6029883027076721,4.012913227081299
초,공립,중구,대전보성초등학교,대전광역시 중구 보문산로141번길 34(문화동. 대전보성초등학교),본교,190,127.3964886,36.3066382,문화2동,2.423499822616577,6.953676223754883,45.308109283447266
초,공립,중구,대전보운초등학교,대전광역시 중구 대종로315번길 42(부사동.대전보운초등학교),본교,115,127.4318082,36.3143908,부사동,0.478651225566864,1.8568174839019775,17.304534912109375
초,공립,중구,대전산성초등학교,대전광역시 중구 대둔산로 332(사정동.산성초등학교),본교,327,127.3854134,36.2990113,산성동,0.36631274223327637,5.687214374542236,38.0848503112793
초,공립,중구,대전석교초등학교,대전광역시 중구 대종로204번길 12(석교동.대전석교초등학교),본교,163,127.4462254,36.3086634,석교동,2.8368849754333496,2.752756357192993,19.226625442504883
초,공립,중구,대전선화초등학교,대전광역시 중구 선화로 159(선화동. 대전선화초등학교),본교,701,127.4234663,36.3326733,은행선화동,0.11086761206388474,1.8369694948196411,14.110204696655273
초,공립,중구,대전신평초등학교,대전광역시 중구 유등천동로 478. 대전신평초등학교 (태평동.대전신평초등학교),본교,314,127.3897213,36.3234302,태평2동,0.2288264036178589,1.3191107511520386,15.390564918518066
초,공립,중구,대전오류초등학교,대전광역시 중구 오류로 46(오류동),본교,249,127.4047562,36.324966,오류동,0.21607273817062378,1.4871073961257935,17.532699584960938
초,공립,중구,대전옥계초등학교,대전광역시 중구 모암로 35. 대전옥계초등학교 (옥계동. 대전옥계초등학교),본교,109,127.4483618,36.3009946,석교동,3.244868755340576,11.453524589538574,37.97206497192383
초,공립,중구,대전원평초등학교,대전광역시 중구 계백로1615번길 46. 대전원평초등학교 (유천동),본교,257,127.3999032,36.3216702,유천2동,0.3116838037967682,0.8390199542045593,8.066808700561523
초,공립,중구,대전유평초등학교,대전광역시 중구 수침로 123(태평동),본교,215,127.3974668,36.3300035,태평1동,0.09439302980899811,1.6955091953277588,18.871362686157227
초,공립,중구,대전중앙초등학교,대전광역시 중구 선화로43번길 99(선화동. 대전중앙초등학교),본교,1082,127.4141355,36.3307172,은행선화동,1.281569480895996,4.516447067260742,28.200761795043945
초,공립,중구,대전중촌초등학교,대전광역시 중구 대종로 684(중촌동.대전중촌초등학교),본교,262,127.41106,36.3412467,중촌동,0.3697707951068878,1.9919159412384033,16.313533782958984
초,공립,중구,대전태평초등학교,대전광역시 중구 유천로 117(태평동. 대전태평초등학교),본교,415,127.3950265,36.3229254,태평2동,0.19575780630111694,0.7610064148902893,5.76942253112793
초,공립,중구,산서초등학교,대전광역시 중구 남달미로 87(목달동. 산서초등학교),본교,57,127.4093374,36.2668849,산성동,1.8409348726272583,6.093221187591553,34.606292724609375
초,공립,중구,서대전초등학교,대전광역시 중구 선화로 17(용두동.서대전초등학교),본교,214,127.41044,36.3259585,용두동,0.6205306053161621,3.3628742694854736,26.02591896057129
초,사립,중구,대전성모초등학교,대전광역시 중구 대흥로 62(대흥동. 대전성모초등학교),본교,658,127.4193093,36.32246,대흥동,0.3713465929031372,3.6975479125976562,37.70171356201172
초,공립,서구,가수원초등학교,대전광역시 서구 벌곡로 1359(가수원동. 가수원초등학교),본교,258,127.3533137,36.3031409,가수원동,3.337491035461426,2.801133871078491,26.392478942871094
초,공립,서구,기성초등학교,대전광역시 서구 기성초교길 42(매노동),본교,33,127.3380289,36.2487568,기성동,7.4130330085754395,8.7347412109375,37.80142593383789
초,공립,서구,기성초등학교길헌분교장,대전광역시 서구 당고개길 48(평촌동. 기성초등학교 길헌분교장),분교장,7,127.3164705,36.241768,기성동,5.164791107177734,8.445597648620605,31.72289276123047
초,공립,서구,대전가장초등학교,대전광역시 서구 가장로 150(가장동. 대전가장초등학교),본교,493,127.3887528,36.3305,가장동,0.46887293457984924,1.5154697895050049,15.319396018981934
초,공립,서구,대전갈마초등학교,대전광역시 서구 월평동로 2(갈마동. 갈마초등학교),본교,233,127.3693227,36.3559583,갈마1동,0.23862409591674805,3.8057475090026855,34.63504409790039
초,공립,서구,대전갑천초등학교,대전광역시 서구 월평동로 61(월평동. 대전갑천초등학교),본교,426,127.3676786,36.3608614,월평3동,0.9681603312492371,1.0228995084762573,8.880819320678711
초,공립,서구,대전관저초등학교,대전광역시 서구 관저동로 161(관저동. 관저초등학교),본교,331,127.3398901,36.3065734,관저1동,2.403757333755493,2.56880521774292,19.701221466064453
초,공립,서구,대전구봉초등학교,대전광역시 서구 관저로 75대전구봉초등학교,본교,586,127.3301054,36.2997236,관저2동,0.9428161382675171,2.1584651470184326,17.731578826904297
초,공립,서구,대전금동초등학교,대전광역시 서구 관저로 45(관저동.대전금동초등학교),본교,672,127.3262661,36.2981969,관저2동,0.13880102336406708,1.6164432764053345,12.284043312072754
초,공립,서구,대전내동초등학교,대전광역시 서구 동서대로1063번길 13(내동.내동초등학교),본교,705,127.3792468,36.3311179,내동,0.840176522731781,2.316295623779297,25.099151611328125
초,공립,서구,대전느리울초등학교,대전광역시 서구 관저로 196(관저동. 대전느리울초등학교),본교,591,127.3439214,36.2985384,관저2동,1.79593026638031,5.5866289138793945,36.690879821777344
초,공립,서구,대전도마초등학교,대전광역시 서구 배재로172번길 23(도마동.도마초등학교),본교,451,127.3719168,36.3242933,도마1동,2.586244821548462,5.509891986846924,39.965797424316406
초,공립,서구,대전도솔초등학교,대전광역시 서구 원도안로 80. 대전도솔초등학교 (도안동),본교,1141,127.3475014,36.3111845,도안동,1.4927562475204468,5.476590156555176,50.96194076538086
초,공립,서구,대전도안초등학교,대전광역시 서구 원도안로 200(도안동. 도안초등학교),본교,934,127.344685,36.3217137,도안동,1.940973162651062,4.77357816696167,31.34623146057129
초,공립,서구,대전둔산초등학교,대전광역시 서구 둔산로74번길 20(둔산동.둔산초등학교),본교,407,127.3814036,36.3499471,둔산2동,0.8293883204460144,1.558323621749878,18.788501739501953
초,공립,서구,대전둔원초등학교,대전광역시 서구 대덕대로 112-10(갈마동),본교,540,127.3742794,36.3436193,,5.65446662902832,5.1361870765686035,29.600292205810547
초,공립,서구,대전둔천초등학교,대전광역시 서구 만년로 3. 대전둔천초등학교 (만년동),본교,194,127.3740023,36.3684922,만년동,0.5839868187904358,2.0495383739471436,17.37298583984375
초,공립,서구,대전만년초등학교,대전광역시 서구 만년남로 14(만년동. 만년초등학교),본교,159,127.3773117,36.3671306,만년동,2.4882664680480957,1.4581283330917358,24.473966598510742
초,공립,서구,대전문정초등학교,대전광역시 서구 문정로 180. 문정초등학교 (둔산동),본교,460,127.3958379,36.3505437,둔산3동,0.21199597418308258,1.9474138021469116,9.110429763793945
초,공립,서구,대전백운초등학교,대전광역시 서구 계룡로576번길 56(괴정동. 대전백운초등학교),본교,664,127.3850093,36.3405387,괴정동,1.2409095764160156,3.4532389640808105,25.165517807006836
초,공립,서구,대전변동초등학교,대전광역시 서구 유등로 373(변동) 대전변동초등학교,본교,152,127.3857104,36.3250319,변동,0.7649229764938354,1.95647394657135,17.707687377929688
초,공립,서구,대전복수초등학교,대전광역시 서구 복수중로34번길 29(복수동.대전복수초등학교),본교,702,127.3768451,36.3082137,복수동,3.9279701709747314,6.699957847595215,36.27693176269531
초,공립,서구,대전봉산초등학교,대전광역시 서구 신갈마로141번길 45. 대전봉산초등학교 (갈마동),본교,368,127.3659116,36.3451704,갈마1동,4.5236968994140625,8.862167358398438,41.105316162109375
초,공립,서구,대전삼천초등학교,대전광역시 서구 둔산북로 232-33. 대전삼천초등학교 (둔산동),본교,631,127.4012153,36.3539594,둔산3동,2.210742235183716,2.043902635574341,21.724206924438477
초,공립,서구,대전샘머리초등학교,대전광역시 서구 유등로 879(둔산동),본교,700,127.3933215,36.3632745,둔산2동,0.36482352018356323,1.779557704925537,19.491249084472656
초,공립,서구,대전서부초등학교,대전광역시 서구 동서대로 968(변동),본교,404,127.3690371,36.3333627,변동,0.9223247170448303,7.07689905166626,38.88054275512695
초,공립,서구,대전서원초등학교,대전광역시 서구 문정로 279(둔산동. 서원초등학교),본교,585,127.3943323,36.3593773,둔산2동,2.702812433242798,1.2471095323562622,10.008379936218262
초,공립,서구,대전선암초등학교,대전광역시 서구 관저중로 61(관저동),본교,401,127.3340098,36.2975283,관저2동,3.407045841217041,2.2979776859283447,20.30079460144043
초,공립,서구,대전선유초등학교,대전광역시 서구 관저남로 60(관저동),본교,835,127.341235,36.2949457,관저2동,1.487363576889038,3.4359030723571777,27.226314544677734
초,공립,서구,대전성룡초등학교,대전광역시 서구 갈마역로 125(월평동. 성룡초등학교),본교,854,127.3735199,36.3619376,월평3동,0.4800870716571808,1.0704301595687866,7.8869948387146
초,공립,서구,대전성천초등학교,대전광역시 서구 갈마역로 139(월평동. 성천초등학교),본교,29,127.3734766,36.3631631,월평2동,0.6669366955757141,1.1791690587997437,9.440628051757812
초,공립,서구,대전수미초등학교,대전광역시 서구 괴곡길 42(괴곡동. 대전수미초등학교),본교,61,127.3615389,36.2953352,정림동,1.1421006917953491,9.18556022644043,46.14851760864258
초,공립,서구,대전신계초등학교,대전광역시 서구 복수동로 26(복수동. 신계초등학교),본교,617,127.3778077,36.3019821,복수동,5.965056896209717,4.559946537017822,33.12766647338867
초,공립,서구,대전원앙초등학교,대전광역시 서구 관저북로 97. 대전원앙초등학교 (관저동),본교,224,127.3378,36.3114556,관저1동,0.6063380241394043,6.691141605377197,28.72824478149414
초,공립,서구,대전월평초등학교,대전광역시 서구 월평서로 22(월평동.월평초등학교),본교,110,127.358104,36.3557995,월평1동,0.5567687153816223,1.376761555671692,12.85252571105957
초,공립,서구,대전유천초등학교,대전광역시 서구 제비네6길 69(도마동),본교,485,127.3754395,36.3141096,도마2동,0.47931039333343506,3.7988440990448,19.143003463745117
초,공립,서구,대전정림초등학교,대전광역시 서구 정림로 32(정림동)대전정림초등학교,본교,444,127.3665373,36.3036623,정림동,0.13484302163124084,2.7691426277160645,37.25838851928711
초,공립,서구,대전탄방초등학교,대전광역시 서구 탄방로 15(탄방동. 대전탄방초등학교),본교,602,127.3911856,36.3456534,탄방동,2.267944097518921,2.5706946849823,30.28644561767578
초,공립,서구,대전탄방초등학교용문분교장,대전광역시 서구 도솔로 500,분교장,493,127.3975163,36.3409359,용문동,1.1683964729309082,2.6709115505218506,60.07164764404297
초,공립,서구,대전호수초등학교,대전광역시 서구 도안동로 182-20(도안동),본교,897,127.3502082,36.3204731,도안동,1.579992413520813,1.634430170059204,11.391263008117676
초,공립,서구,한밭초등학교,대전광역시 서구 문정로 221(둔산동),본교,1604,127.3941584,36.3545007,둔산1동,3.024517059326172,1.5431984663009644,8.75123405456543
초,사립,서구,대전삼육초등학교,대전광역시 서구 도림1길 15. 대전삼육초등학교 (도마동),본교,511,127.3727877,36.3115181,도마2동,3.3969597816467285,6.080471515655518,35.49541091918945
초,공립,유성구,구즉초등학교,대전광역시 유성구 구룡달전로 34(봉산동),본교,418,127.3822122,36.4407059,구즉동,2.7425715923309326,8.515974998474121,39.94380187988281
초,공립,유성구,금성초등학교,대전광역시 유성구 신성로72번길 5(신성동. 금성초등학교),본교,338,127.3500818,36.3893002,신성동,0.8427045345306396,3.7172908782958984,27.572460174560547
초,공립,유성구,남선초등학교,대전광역시 유성구 계백로93번길 277-29(송정동. 남선초등학교),본교,44,127.2646541,36.2873073,진잠동,5.538247585296631,12.314973831176758,37.07854080200195
초,공립,유성구,대덕초등학교,대전광역시 유성구 대덕대로556번길 102(도룡동),본교,641,127.3817273,36.3850882,신성동,1.8105175495147705,13.912479400634766,36.83192443847656
초,공립,유성구,대덕초등학교도룡분교장,대전광역시 유성구 엑스포로97번길 100(도룡동),분교장,60,127.3913403,36.3787207,신성동,0.35768944025039673,13.375835418701172,51.003456115722656
초,공립,유성구,대전계산초등학교,대전광역시 유성구 학하서로 74(계산동),본교,708,127.2993032,36.3438972,학하동,0.43611618876457214,6.706846237182617,33.18271255493164
초,공립,유성구,대전관평초등학교,대전광역시 유성구 테크노4로 132(관평동),본교,414,127.3876376,36.4245116,관평동,2.3013486862182617,1.5749648809432983,8.16797161102295
초,공립,유성구,대전교촌초등학교,대전광역시 유성구 진잠로149번길 42(교촌동.대전교촌초등학교),본교,279,127.3167901,36.306002,진잠동,0.5491430163383484,3.6894428730010986,18.857746124267578
초,공립,유성구,대전노은초등학교,대전광역시 유성구 노은동로99번길 35. 대전노은초등학교 (노은동.노은초등학교),본교,686,127.3212215,36.368934,노은1동,0.8500644564628601,1.4073072671890259,19.778915405273438
초,공립,유성구,대전대정초등학교,대전광역시 유성구 대정로28번길 55   대전대정초등학교(대정동),본교,260,127.3232795,36.3152767,진잠동,2.075685977935791,3.751725673675537,17.987751007080078
초,공립,유성구,대전동화초등학교,대전광역시 유성구 관평2로 43(관평동. 대전동화초등학교),본교,688,127.3895368,36.4226468,관평동,1.9511816501617432,1.5981181859970093,9.450234413146973
초,공립,유성구,대전두리초등학교,대전광역시 유성구 와룡로 37(송강동) 대전두리초등학교,본교,491,127.3820834,36.428809,구즉동,1.7727142572402954,7.353936195373535,36.25630569458008
초,공립,유성구,대전둔곡초등학교,대전광역시 유성구 과학인재4길 10(둔곡동),본교,428,127.3646634,36.4534382,구즉동,4.273687839508057,9.12816047668457,33.54182052612305
초,공립,유성구,대전반석초등학교,대전광역시 유성구 반석동로 30(반석동.대전반석초등학교),본교,1030,127.3131023,36.3899585,노은3동,0.721157431602478,2.1711618900299072,31.77686882019043
초,공립,유성구,대전배울초등학교,대전광역시 유성구 배울2로 8(관평동. 대전배울초등학교),본교,568,127.3841009,36.4218889,관평동,4.4576826095581055,4.620335578918457,25.83453941345215
초,공립,유성구,대전복용초등학교,대전광역시 유성구 상대복용로65번길 36(복용동),본교,802,127.3276981,36.3350119,상대동,0.8056864738464355,1.9595340490341187,13.358811378479004
초,공립,유성구,대전봉명초등학교,대전광역시 유성구 계룡로132번길 62(봉명동),본교,684,127.3434709,36.3496096,원신흥동,0.24031727015972137,1.250877022743225,10.206466674804688
초,공립,유성구,대전상대초등학교,대전광역시 유성구 월드컵대로 322(상대동. 상대초등학교),본교,634,127.3365151,36.3474262,상대동,0.9527225494384766,2.5839431285858154,22.386308670043945
초,공립,유성구,대전상원초등학교,대전광역시 유성구 상대서로 46. 대전상원초등학교 (상대동),본교,746,127.3333047,36.3424244,상대동,0.870956301689148,4.4676833152771,31.05011558532715
초,공립,유성구,대전상지초등학교,대전광역시 유성구 노은동로 165(지족동.대전상지초등학교),본교,466,127.322113,36.3753649,노은1동,1.332440972328186,4.06179141998291,29.535856246948242
초,공립,유성구,대전새미래초등학교,대전광역시 유성구 지족로 168(지족동. 대전새미래초등학교),본교,948,127.3031653,36.3792934,노은3동,0.6654534339904785,8.26464557647705,39.07069778442383
초,공립,유성구,대전송강초등학교,대전광역시 유성구 송강로42번길 6. 대전송강초등학교 (송강동),본교,289,127.384204,36.4342453,구즉동,1.945941686630249,1.863849401473999,38.2086067199707
초,공립,유성구,대전송림초등학교,대전광역시 유성구 노은로410번길 123-14(하기동),본교,184,127.3323062,36.3888958,노은2동,1.2345550060272217,6.71697473526001,30.803598403930664
초,공립,유성구,대전수정초등학교,대전광역시 유성구 노은서로 62(노은동. 대전수정초등학교),본교,146,127.3134568,36.3661138,노은1동,2.480414628982544,7.606689453125,37.89643478393555
초,공립,유성구,대전어은초등학교,대전광역시 유성구 농대로 46(어은동),본교,510,127.3536946,36.3648963,온천2동,0.14515183866024017,2.9940690994262695,33.870391845703125
초,공립,유성구,대전용산초등학교,대전광역시 유성구 배울2로 101(용산동),본교,1126,127.3950763,36.4201335,관평동,0.47867655754089355,2.285569190979004,15.960025787353516
초,공립,유성구,대전원신흥초등학교,대전광역시 유성구 원신흥로55번길 37(원신흥동. 대전원신흥초등학교),본교,243,127.3425185,36.3409794,원신흥동,0.5068953633308411,1.8223856687545776,14.744966506958008
초,공립,유성구,대전원신흥초등학교복용분교장,대전광역시 유성구 유성대로 600(상대동),분교장,669,127.3303713,36.346743,상대동,4.51812219619751,4.815344333648682,27.814250946044922
초,공립,유성구,대전자운초등학교,대전광역시 유성구 자운로97번길 380(신봉동.자운초등학교),본교,357,127.3387617,36.4123998,신성동,0.6970226168632507,4.070468902587891,34.45736312866211
초,공립,유성구,대전장대초등학교,대전광역시 유성구 문화원로19번길 16(장대동),본교,315,127.3395598,36.3615475,온천2동,0.06875746697187424,2.306817054748535,30.431331634521484
초,공립,유성구,대전전민초등학교,대전광역시 유성구 엑스포로466번길 42(전민동.대전전민초등학교),본교,985,127.4069267,36.3985633,전민동,0.3908177316188812,1.1795941591262817,10.365192413330078
초,공립,유성구,대전죽동초등학교,대전광역시 유성구 죽동로 52(죽동) 죽동초등학교,본교,818,127.3356513,36.370421,온천2동,2.5069713592529297,3.8038082122802734,27.775903701782227
초,공립,유성구,대전지족초등학교,대전광역시 유성구 노은서로 238(지족동),본교,426,127.3172754,36.3805555,노은2동,1.2230589389801025,5.577076435089111,33.7384147644043
초,공립,유성구,대전하기초등학교,대전광역시 유성구 송림로19번길 32(하기동)대전하기초등학교,본교,348,127.3215859,36.388574,노은2동,1.6308673620224,5.940122127532959,34.26889419555664
초,공립,유성구,덕송초등학교,대전광역시 유성구 현충원로 265(덕명동),본교,157,127.3019117,36.3611802,학하동,1.4187307357788086,8.971661567687988,45.719024658203125
초,공립,유성구,문지초등학교,대전광역시 유성구 전민로 41(문지동),본교,339,127.3994116,36.395831,전민동,8.01620864868164,6.885412216186523,29.36379051208496
초,공립,유성구,봉암초등학교,대전광역시 유성구 궁동로 21(궁동. 봉암초등학교),본교,37,127.3476616,36.3640974,온천2동,2.70648455619812,6.478299617767334,35.867164611816406
초,공립,유성구,외삼초등학교,대전광역시 유성구 반석동로 63(반석동.외삼초등학교),본교,580,127.3105126,36.3928996,노은3동,0.7769644856452942,2.574988603591919,24.29185676574707
초,공립,유성구,유성초등학교,대전광역시 유성구 장대로71번길 12(장대동. 유성초등학교),본교,108,127.3337025,36.3624162,온천2동,8.987472534179688,4.037842750549316,30.88945960998535
초,공립,유성구,진잠초등학교,대전광역시 유성구 진잠로59번길 53. 진잠초등학교 (원내동. 진잠초등학교),본교,287,127.3151578,36.2991072,진잠동,1.462410569190979,5.0120463371276855,23.525026321411133
초,공립,유성구,학하초등학교,대전광역시 유성구 진잠옛로 165. 학하초등학교 (학하동),본교,156,127.3122319,36.3343471,학하동,0.6539322733879089,1.753861665725708,12.604581832885742
초,공립,유성구,흥도초등학교,대전광역시 유성구 원신흥남로 20(원신흥동. 흥도초등학교),본교,772,127.3387326,36.3341902,원신흥동,0.23860973119735718,1.4386719465255737,24.59845733642578
중,공립,대덕구,대전대화중학교,대전광역시 대덕구 대오길 9(오정동. 대화중학교),본교,205,127.4144954,36.3615056,오정동,7.70399808883667,8.756675720214844,52.37895965576172
중,공립,대덕구,대전매봉중학교,대전광역시 대덕구 선비마을로 165(송촌동.대전매봉중학교),본교,656,127.4360113,36.3693507,송촌동,3.5568861961364746,7.964955806732178,44.10379409790039
중,공립,대덕구,대전법동중학교,대전광역시 대덕구 쌍청당로 55(법동),본교,364,127.4333447,36.3667155,법2동,1.5314149856567383,3.037421464920044,23.453453063964844
중,공립,대덕구,대전송촌중학교,대전광역시 대덕구 계족산로 110(송촌동),본교,739,127.4433377,36.3639866,송촌동,2.9564731121063232,4.743870735168457,31.147436141967773
중,공립,대덕구,대전용전중학교,대전광역시 대덕구 한밭대로1146번길 46. 대전용전중학교 (중리동),본교,271,127.4252389,36.356718,중리동,2.139672040939331,5.193670272827148,38.475135803222656
중,공립,대덕구,신탄중앙중학교,대전광역시 대덕구 덕암로 233. 24 (덕암동),본교,265,127.4243139,36.4413849,덕암동,1.2917522192001343,2.712388515472412,16.04148292541504
중,공립,대덕구,오정중학교,대전광역시 대덕구 한남로150번길 135(오정동. 오정중학교),본교,92,127.4078997,36.3510997,오정동,1.1026679277420044,1.754150629043579,16.621292114257812
중,공립,대덕구,중리중학교,대전광역시 대덕구 중리동로 85(중리동. 대전중리중학교),본교,115,127.4274172,36.3665971,중리동,1.2033323049545288,3.4734349250793457,32.50436019897461
중,공립,대덕구,회덕중학교,대전광역시 대덕구 신탄진로218번길 22(와동. 대전회덕중학교),본교,111,127.4256826,36.4009441,회덕동,0.421055406332016,7.892746925354004,43.18008804321289
중,사립,대덕구,대전경덕중학교,대전광역시 대덕구 동산초교로63번길 12(오정동),본교,227,127.4230613,36.349831,오정동,5.9518842697143555,4.74751091003418,32.33957290649414
중,사립,대덕구,신탄진중학교,대전광역시 대덕구 석봉로 15. 신탄진중학교 (석봉동),본교,409,127.4225837,36.4475861,석봉동,0.8792855143547058,3.261204242706299,25.090957641601562
중,공립,동구,대전가양중학교,대전광역시 동구 비래서로62번길 100(가양동. 대전가양중학교),본교,391,127.4486567,36.3508171,가양2동,1.7118463516235352,3.760786533355713,18.558378219604492
중,공립,동구,대전가오중학교,대전광역시 동구 은어송로 79(가오동. 대전가오중학교),본교,531,127.4570942,36.308569,효동,0.13195553421974182,2.815218448638916,30.866294860839844
중,공립,동구,대전용운중학교,대전광역시 동구 용운로 208(용운동. 용운중학교),본교,405,127.4650305,36.3253321,용운동,4.525528907775879,13.347816467285156,42.849388122558594
중,공립,동구,대전은어송중학교,대전광역시 동구 동구청로 26(대성동. 대전은어송중학교),본교,733,127.4609474,36.3004121,산내동,3.0072576999664307,10.599570274353027,41.86818313598633
중,공립,동구,동대전중학교,대전광역시 동구 충정로 73-6. 동대전중학교(가양동. 동대전중학교),본교,140,127.4559046,36.3451364,가양2동,7.936209201812744,12.631368637084961,37.055301666259766
중,공립,동구,동신중학교,대전광역시 동구 동부로 56-22(판암동. 동신중학교),본교,71,127.459643,36.3200355,판암2동,3.9811699390411377,6.80723237991333,24.134769439697266
중,공립,동구,충남중학교,대전광역시 동구 계족로 123(신흥동. 충남중학교),본교,792,127.4440635,36.3245875,신인동,4.722471714019775,3.915233850479126,30.38604164123535
중,공립,동구,한밭여자중학교,대전광역시 동구 동대전로110번길 74-57. 한밭여자중학교 (대동),본교,372,127.4489263,36.3299454,대동,2.397435188293457,8.407718658447266,33.682926177978516
중,공립,동구,한밭중학교,대전광역시 동구 태전로 67(삼성동),본교,74,127.4264779,36.3351481,삼성동,0.7091956734657288,1.5619187355041504,14.984895706176758
중,사립,동구,대전대성여자중학교,대전광역시 동구 대성2길 20(가양동),본교,184,127.4416481,36.3368783,가양1동,1.8839913606643677,4.600063323974609,29.943750381469727
중,사립,동구,보문중학교,대전광역시 동구 우암로 57(삼성동. 보문중학교),본교,248,127.4239609,36.3365961,삼성동,0.148427814245224,2.2208101749420166,15.509432792663574
중,사립,동구,우송중학교,대전광역시 동구 동대전로131번길 53(자양동) 우송중학교,본교,189,127.4433667,36.3348585,자양동,2.3777060508728027,4.374329090118408,29.943750381469727
중,공립,중구,대전글꽃중학교,대전광역시 중구 계룡로918번길 103(문화동. 대전글꽃중학교),본교,890,127.4086577,36.3186225,문화1동,1.1848442554473877,1.4332317113876343,7.59208869934082
중,공립,중구,대전대문중학교,대전광역시 중구 송리로 33(문화동. 대전대문중학교),본교,78,127.4007655,36.3079485,문화2동,2.916538715362549,4.053792476654053,33.508331298828125
중,공립,중구,대전문화여자중학교,대전광역시 중구 문화로218번길 63. 대전문화여자중학교 (문화동),본교,146,127.4101816,36.3129522,문화1동,1.0506948232650757,3.954292058944702,26.461545944213867
중,공립,중구,대전여자중학교,대전광역시 중구 보문로230번길 69. 대전여자중학교 (대흥동),본교,469,127.4263304,36.3248732,대흥동,3.154733419418335,1.303690791130066,28.012361526489258
중,공립,중구,대전중학교,대전광역시 중구 수도산로 9. 대전중학교 (대흥동. 대전중학교),본교,299,127.4254236,36.3209574,대흥동,0.6954404711723328,2.8274810314178467,28.012361526489258
중,공립,중구,대전태평중학교,대전광역시 중구 수침로111번길 12(태평동),본교,532,127.3973928,36.3294894,태평1동,0.7239118218421936,1.5521289110183716,18.871362686157227
중,공립,중구,충남여자중학교,대전광역시 중구 동서대로 1368(목동.충남여자중학교),본교,1006,127.4109427,36.3301968,목동,0.8237683773040771,4.745916843414307,28.200761795043945
중,사립,중구,대전대성중학교,대전광역시 중구 목동로 23. (목동.대성중학교),본교,447,127.4074387,36.3325318,목동,16.508037567138672,6.389558792114258,39.337345123291016
중,사립,중구,대전동산중학교,대전광역시 중구 문화로 183(문화동),본교,267,127.4051186,36.3153785,문화1동,2.041020631790161,2.8308444023132324,22.633901596069336
중,사립,중구,대전신일중학교,대전광역시 중구 부사로32번길 27(부사동.대전신일중학교),본교,300,127.4345299,36.3091404,부사동,9.882126808166504,12.414152145385742,45.239864349365234
중,사립,중구,대전중앙중학교,대전광역시 중구 대종로 634(중촌동),본교,276,127.4151938,36.3381487,중촌동,0.3505224585533142,1.9512465000152588,15.988585472106934
중,사립,중구,동명중학교,대전광역시 중구 사득로54번길 29. 동명중학교 (석교동),본교,119,127.438432,36.3084918,석교동,18.95668601989746,9.414133071899414,36.463600158691406
중,사립,중구,청란여자중학교,대전광역시 중구 보문로95번길 40. 청란여자중학교 (부사동),본교,20,127.4296172,36.3109466,부사동,5.230008125305176,12.46269416809082,41.096595764160156
중,사립,중구,호수돈여자중학교,대전광역시 중구 선화로 50(용두동.호수돈여자중.고등학교),본교,324,127.413465,36.3265502,은행선화동,1.453172206878662,5.378050804138184,33.76036071777344
중,공립,서구,가수원중학교,대전광역시 서구 가수원로 26(가수원동),본교,143,127.3548124,36.2982823,가수원동,2.2939066886901855,4.568653583526611,26.611448287963867
중,공립,서구,갈마중학교,대전광역시 서구 계룡로326번길 138(갈마동.갈마중학교),본교,63,127.3646118,36.3474707,갈마1동,3.2190587520599365,9.396450996398926,41.7295036315918
중,공립,서구,기성중학교,대전광역시 서구 장안로 54.(흑석동),본교,29,127.3411563,36.2499908,기성동,1.5929237604141235,4.331879138946533,32.475616455078125
중,공립,서구,대전갑천중학교,대전광역시 서구 월평동로 80(월평동. 갑천중학교),본교,731,127.3691739,36.3619688,월평3동,1.1329233646392822,1.2351864576339722,17.90420150756836
중,공립,서구,대전관저중학교,대전광역시 서구 관저동로 143(관저동. 관저중학교),본교,828,127.3397644,36.3056354,관저1동,2.136491060256958,2.2257192134857178,19.701221466064453
중,공립,서구,대전괴정중학교,대전광역시 서구 가장로 15(괴정동.대전괴정중학교),본교,555,127.3790856,36.3402017,괴정동,0.13791130483150482,2.8801796436309814,18.72347068786621
중,공립,서구,대전구봉중학교,대전광역시 서구 관저서로 86(관저동. 대전구봉중학교),본교,687,127.3301551,36.3004178,관저2동,2.502328395843506,2.746614456176758,17.933725357055664
중,공립,서구,대전남선중학교,대전광역시 서구 월평북로 41(월평동. 남선중학교),본교,160,127.372306,36.3632381,월평2동,0.5510101914405823,1.2136741876602173,9.440628051757812
중,공립,서구,대전내동중학교,대전광역시 서구 배재로 263(변동),본교,498,127.370415,36.3323785,변동,0.25778692960739136,7.294496536254883,38.88054275512695
중,공립,서구,대전느리울중학교,대전광역시 서구 관저중로64번길 84(관저동),본교,760,127.3395222,36.2973786,관저2동,0.1577429622411728,2.4650275707244873,15.410304069519043
중,공립,서구,대전도마중학교,대전광역시 서구 도솔2길 22(도마동. 대전도마중학교),본교,174,127.3718715,36.3188315,도마2동,4.446649551391602,5.482917308807373,26.313364028930664
중,공립,서구,대전도안중학교,대전광역시 서구 원도안로 160(도안동. 대전도안중학교),본교,941,127.3451717,36.3181204,도안동,2.2367331981658936,6.691768646240234,31.61431312561035
중,공립,서구,대전둔산중학교,대전광역시 서구 갈마역로25번길 70(갈마동) 대전둔산중학교,본교,541,127.372252,36.3533151,갈마1동,0.39228788018226624,4.393767833709717,32.75141143798828
중,공립,서구,대전둔원중학교,대전광역시 서구 괴정로11번길 73(갈마동. 둔원중학교),본교,576,127.3765274,36.3425045,갈마2동,3.05526065826416,3.6919913291931152,29.600292205810547
중,공립,서구,대전만년중학교,대전광역시 서구 만년남로 17(만년동. 대전만년중학교),본교,250,127.3759751,36.3670425,만년동,0.10927892476320267,1.5350265502929688,24.473966598510742
중,공립,서구,대전문정중학교,대전광역시 서구 둔산북로 232-11. 대전문정중학교 (둔산동),본교,1215,127.4008621,36.3549761,둔산3동,0.04672858119010925,1.9520729780197144,21.724206924438477
중,공립,서구,대전버드내중학교,대전광역시 서구 유등로 285(도마동),본교,771,127.3832698,36.3167368,도마1동,0.6770902872085571,2.080617904663086,16.594615936279297
중,공립,서구,대전변동중학교,대전광역시 서구 도산로181번길 39(변동),본교,284,127.3759137,36.3244764,변동,3.2877185344696045,6.414732933044434,46.15024948120117
중,공립,서구,대전봉산중학교,대전광역시 서구 배재로262번길 60(변동. 봉산중학교),본교,137,127.3735491,36.3304754,변동,3.057950019836426,5.615835666656494,33.7825927734375
중,공립,서구,대전봉우중학교,대전광역시 서구 관저로 102(관저동. 대전봉우중학교),본교,729,127.3326745,36.2987466,관저2동,4.185131072998047,2.145216226577759,11.467840194702148
중,공립,서구,대전삼천중학교,대전광역시 서구 문정로 271(둔산동),본교,1108,127.3940265,36.3585826,둔산2동,0.272617906332016,1.3025263547897339,9.885457038879395
중,공립,서구,대전서중학교,대전광역시 서구 동서대로997번길 57(괴정동. 대전서중학교),본교,161,127.3740189,36.3357952,괴정동,3.219926595687866,5.438927173614502,35.04838943481445
중,공립,서구,대전신계중학교,대전광역시 서구 복수동로 40-30(복수동),본교,536,127.377418,36.3019711,복수동,1.1776087284088135,4.988868713378906,37.99490737915039
중,공립,서구,대전월평중학교,대전광역시 서구 월평동로 21(월평동. 월평중학교),본교,197,127.3678135,36.3565812,월평1동,0.7142665386199951,1.7162498235702515,26.957555770874023
중,공립,서구,대전정림중학교,대전광역시 서구 괴곡길 70(괴곡동),본교,138,127.3609965,36.2935839,정림동,0.17574115097522736,10.418105125427246,43.82249450683594
중,공립,서구,대전탄방중학교,대전광역시 서구 문정로 181(둔산동),본교,1217,127.3943685,36.350383,둔산1동,0.34400829672813416,1.8226354122161865,9.322548866271973
중,사립,서구,대전대신중학교,대전광역시 서구 오량1길 98. 대전대신중학교 (복수동. 대전대신중·고등학교),본교,438,127.3810682,36.3092541,복수동,5.716325283050537,10.091483116149902,50.12954330444336
중,사립,서구,대전삼육중학교,대전광역시 서구 도림1길 15(도마동),본교,163,127.3727877,36.3115181,도마2동,3.3969597816467285,6.080471515655518,35.49541091918945
중,사립,서구,동방여자중학교,대전광역시 서구 복수중로 27(복수동.동방여자중학교),본교,297,127.3744993,36.3063449,복수동,0.9229719042778015,4.124721527099609,24.62934112548828
중,공립,유성구,대덕중학교,대전광역시 유성구 대덕대로 515(가정동),본교,529,127.3771598,36.3791884,신성동,0.9059091806411743,9.204305648803711,37.43757629394531
중,공립,유성구,대전관평중학교,대전광역시 유성구 테크노4로 132. 대전 관평중학교 (관평동.관평중학교),본교,796,127.3876376,36.4245116,관평동,2.3013486862182617,1.5749648809432983,8.16797161102295
중,공립,유성구,대전노은중학교,대전광역시 유성구 노은동로 104(노은동. 노은중학교),본교,803,127.3243216,36.369988,노은1동,2.5187840461730957,2.551283359527588,24.006763458251953
중,공립,유성구,대전덕명중학교,대전광역시 유성구 학하중앙로 61. 대전덕명중학교 (덕명동. 대전덕명중학교),본교,494,127.3027397,36.3458099,학하동,0.907078206539154,4.635598182678223,41.756893157958984
중,공립,유성구,대전동화중학교,대전광역시 유성구 관평2로 43(관평동),본교,660,127.3895368,36.4226468,관평동,1.9511816501617432,1.5981181859970093,9.450234413146973
중,공립,유성구,대전두리중학교,대전광역시 유성구 와룡로 37(송강동),본교,468,127.3820834,36.428809,구즉동,1.7727142572402954,7.353936195373535,36.25630569458008
중,공립,유성구,대전둔곡중학교,대전광역시 유성구 과학인재4길 10(둔곡동),본교,79,127.3646634,36.4534382,구즉동,4.273687839508057,9.12816047668457,33.54182052612305
중,공립,유성구,대전문지중학교,대전광역시 유성구 전민로 53(전민동.  문지중학교),본교,190,127.3990807,36.3968298,전민동,2.503310203552246,7.723923683166504,28.488140106201172
중,공립,유성구,대전봉명중학교,대전광역시 유성구 계룡로132번길 71(봉명동. 대전봉명중학교),본교,642,127.3446292,36.349652,원신흥동,1.9944790601730347,1.4070454835891724,11.042271614074707
중,공립,유성구,대전새미래중학교,대전광역시 유성구 지족동로 55(지족동),본교,406,127.3050716,36.3792504,노은3동,0.48954132199287415,8.4519624710083,31.424835205078125
중,공립,유성구,대전송강중학교,대전광역시 유성구 와룡로 122(송강동. 송강중학교),본교,292,127.3816676,36.4376479,구즉동,1.3937026262283325,6.3006367683410645,39.38802719116211
중,공립,유성구,대전어은중학교,대전광역시 유성구 농대로 56(어은동.대전어은중학교),본교,505,127.352819,36.3656666,온천2동,0.5544596314430237,5.482563018798828,34.35769271850586
중,공립,유성구,대전외삼중학교,대전광역시 유성구 반석동로 75(반석동. 외삼중학교),본교,827,127.3101903,36.3940423,노은3동,2.358351707458496,3.223445415496826,24.29185676574707
중,공립,유성구,대전원신흥중학교,대전광역시 유성구 동서대로735번길 20(원신흥동),본교,1010,127.3453455,36.3332893,원신흥동,0.5929086208343506,6.099162578582764,43.44169616699219
중,공립,유성구,대전자운중학교,대전광역시 유성구 자운로97번길 356(신봉동. 자운중학교),본교,98,127.3382419,36.4118922,신성동,1.3241153955459595,4.4649739265441895,36.26016616821289
중,공립,유성구,대전장대중학교,대전광역시 유성구 문화원로 26(장대동.대전장대중학교),본교,230,127.3387996,36.3605249,온천2동,0.06924642622470856,1.495113730430603,15.221875190734863
중,공립,유성구,대전전민중학교,대전광역시 유성구 엑스포로466번길 97(전민동.전민중학교),본교,638,127.4055557,36.4014675,전민동,0.7215439081192017,1.5306729078292847,10.401717185974121
중,공립,유성구,대전지족중학교,대전광역시 유성구 노은동로 193(지족동),본교,520,127.3210215,36.3778461,노은2동,1.904707431793213,5.950159549713135,36.632442474365234
중,공립,유성구,대전체육중학교,대전광역시 유성구 원신흥로40번길 6(원신흥동. 대전체육중고등학교),본교,135,127.3423687,36.3362651,원신흥동,17.43191909790039,6.967126369476318,36.07804870605469
중,공립,유성구,대전하기중학교,대전광역시 유성구 송림로48번길 6-30. 대전하기중학교 (하기동. 대전하기중학교),본교,494,127.3223229,36.3858474,노은2동,1.8397506475448608,3.582853317260742,24.030134201049805
중,공립,유성구,유성중학교,대전광역시 유성구 상대로 33(상대동. 유성중학교),본교,892,127.3347128,36.34583,상대동,1.1057744026184082,3.522066593170166,22.386308670043945
중,공립,유성구,진잠중학교,대전광역시 유성구 진잠로 60-23(원내동. 진잠중학교),본교,209,127.3184051,36.2969898,진잠동,3.243651866912842,3.581969976425171,24.666425704956055
중,사립,유성구,성덕중학교,대전광역시 유성구 신성로 19(신성동. 성덕중학교),본교,257,127.3448873,36.3866583,신성동,5.219666481018066,8.27760124206543,39.05202102661133
